[
  {"id": "csdietz", "name": "Two Mile Brewing", "municipality": "Leadville", "latitude": "39.244636",  "longitude": "-106.290773",  "altitude": "10132" },
  {"id": "tmanb", "name": "South Park Brewing", "municipality": "Fairplay","latitude": "39.220343", "longitude": "-105.992916", "altitude": "9953"},
  {"id": "daives", "name": "Breckenridge Brewery & Pub", "municipality": "Breckenridge", "latitude": "39.4761539", "longitude": "-106.0437915", "altitude": "9644"},
  {"id": "jachyatt", "name": "Avalanche Brewing Company", "municipality": "Silverton", "latitude": "37.8114331", "longitude": "-107.665921", "altitude": "9307"},
  {"id": "awedel", "name": "Big Trout Brewing Company", "municipality": "Winter Park", "latitude": "39.9171606", "longitude": "-105.7855206", "altitude": "9045"},
  {"id": "akilbo", "name": "Square Peg Brewerks (Creede Taproom)", "municipality": "Creede", "latitude": "37.85346", "longitude": "-106.92743", "altitude": "8944"},
  {"id": "absarah", "name": "Irwin Brewing Company", "municipality": "Crested Butte", "latitude": "38.8668435", "longitude": "-106.9867546", "altitude": "8904"},
  {"id": "mjmccann", "name": "Dillon Dam Brewery", "municipality": "Dillon","latitude": "39.627544", "longitude": "-106.060298", "altitude": "8892"},
  {"id": "npuri", "name": "The Peak Bistro & Brewery", "municipality": "Winter Park", "latitude": "39.92367", "longitude": "-105.78676", "altitude": "8775"},
  {"id": "jacc", "name": "Stronghouse Brew Pub", "municipality": "Telluride", "latitude": "37.93589078339142", "longitude": "-107.81248978873116", "altitude": "8766"},
  {"id": "aderr011", "name": "Angry James Brewing Company", "municipality": "Silverthorne", "latitude": "39.632172", "longitude": "-106.076118", "altitude": "8753"},
  {"id": "kbuckey", "name": "Dostal Alley Brewpub and Casino", "municipality": "Central City", "latitude": "39.800232", "longitude": "-105.512497", "altitude": "8440"},
  {"id": "pwaldie", "name": "Worlds End Brewpub", "municipality": "Grand Lake", "latitude": "40.252260", "longitude": "-105.822297", "altitude": "8390"},
  {"id": "ernman", "name": "Funky Town Brewing", "municipality": "Florissant", "latitude": "38.946693", "longitude": "105.289633", "altitude": "8172"},
  {"id": "ryost", "name": "Never Summer Brewing Company", "municipality": "Granby", "latitude": "40.085502", "longitude": "-105.941609", "altitude": "7967"},
  {"id": "isnyder", "name": "Red Mountain Brewing", "municipality": "Ouray", "latitude": "38.02082", "longitude": "-107.67173", "altitude": "7811"},
  {"id": "gwill", "name": "Mad Jack's Mountain Brewery", "municipality": "Bailey", "latitude": "39.2422", "longitude": "105.2839", "altitude": "7749"},
  {"id": "jritz11", "name": "High Alpine Brewing Company", "municipality": "Gunnison", "latitude": "38.54491", "longitude": "-106.92709", "altitude": "7703"},
  {"id": "lcadman", "name": "Vail Brewing Company", "municipality": "Vail", "latitude": "39.620726", "longitude": "-106.469550", "altitude": "7630"},
  {"id": "alwarith", "name": "The Colorado Farm Brewery", "municipality": "Alamosa", "latitude": "37.39904", "longitude": "-106.00012", "altitude": "7587"},
  {"id": "coleb10", "name": "TommyKnocker Brewery & Pub", "municipality": "Idaho Springs", "latitude": "39.741987", "longitude": "-105.517389", "altitude": "7556"},
  {"id": "zachf", "name": "Westbound & Down Brewing Company", "municipality": "Idaho Springs", "latitude": "39.741749", "longitude": "-105.515480", "altitude": "7526"},
  {"id": "ewest01", "name": "Elevation Beer Company", "municipality": "Poncha Springs", "latitude": "38.510038", "longitude": "-106.063928", "altitude": "7432"},
  {"id": "keeler", "name": "Grand Adventure Brewing Co.", "municipality": "Kremmling", "latitude": "40.060048", "longitude": "-106.393249", "altitude": "7356"},
  {"id": "mcahill1", "name": "Tres Litros Beer Company", "municipality": "Salida", "latitude": "38.535940", "longitude": "-105.990460", "altitude": "7192"},
  {"id": "pjackim", "name": "Soulcraft Brewing", "municipality": "Salida", "latitude": "38.52467", "longitude": "-106.00632", "altitude": "7135"},
  {"id": "hinzan-d", "name": "Pikes Peak Brewing Company", "municipality": "Woodmor", "latitude": "39.096104", "longitude": "104.855278", "altitude": "7090"},
  {"id": "nxhinde", "name": "Pikes Peak Brewing Company", "municipality": "Monument", "latitude": "39.095351", "longitude": "-104.8602964", "altitude": "7083"},
  {"id": "ruzuzu", "name": "Mancos Brewing Company", "municipality": "Mancos", "latitude": "37.348184", "longitude": "-108.283109", "altitude": "7083"},
  {"id": "akarduna", "name": "Colorado Boy Depot", "municipality": "Ridgway", "latitude": "38.15213", "longitude": "-107.75849", "altitude": "7073"},
  {"id": "bilprice", "name": "Mountain Tap Brewery", "municipality": "Steamboat Springs", "latitude": "40.4865159", "longitude": "-106.8371755", "altitude": "6719"},
  {"id": "joshbmr", "name": "Storm Peak Brewing Company", "municipality": "Steamboat Springs", "latitude": "40.502250", "longitude": "-106.855057", "altitude": "6683"},
  {"id": "olivia4", "name": "Capitol Creek Brewery", "municipality": "Basalt", "latitude": "39.385670", "longitude": "-107.081360", "altitude": "6650"},
  {"id": "dpohl", "name": "Carver Brewing Company", "municipality": "Durango", "latitude": "37.274677", "longitude": "-107.879951", "altitude": "6617"},
  {"id": "guz339", "name": "Bonfire Brewing", "municipality": "Eagle", "latitude": "39.65569", "longitude": "-106.82868", "altitude": "6610"},
  {"id": "bjurenka", "name": "7 Hermits Brewing Company", "municipality": "Eagle", "latitude": "39.641648", "longitude": "-106.830687", "altitude": "6604"},
  {"id": "bginna", "name": "Ska Brewing Co", "municipality": "Durango", "latitude": "37.2388277", "longitude": "-107.8760642", "altitude": "6564"},
  {"id": "carnhy", "name": "Anarchy Brewing Company", "municipality": "Durango", "latitude": "37.264499", "longitude": "-107.873798", "altitude": "6548"},
  {"id": "caspian", "name": "Nano 108 Brewing Company", "municipality": "Colorado Springs", "latitude": "38.866808582859136", "longitude": "-104.71717408621073", "altitude": "6385"},
  {"id": "vanhook", "name": "Over Yonder Brewing", "municipality": "Golden", "latitude": "39.703315", "longitude": "-105.205100", "altitude": "6361"},
  {"id": "dylan2", "name": "Burly Brewing Company", "municipality": "Castle Rock", "latitude": "39.225279", "longitude": "-104.522826", "altitude": "6254"},
  {"id": "trostrn", "name": "105 West Brewing Company", "municipality": "Castle Rock", "latitude": "39.3812133094208", "longitude": "-104.86758638481176", "altitude": "6224"},
  {"id": "mdees15", "name": "Great Divide Brewery & Roadhouse", "municipality": "Castle Rock",  "latitude": "39.371610", "longitude": "-104.860390", "altitude": "6207"},
  {"id": "dsmcc", "name": "Wild Blue Yonder Brewing", "municipality": "Castle Rock", "latitude": "39.375220", "longitude": "-104.860284", "altitude": "6189"},
  {"id": "cgotch", "name": "Metric Brewing", "municipality": "Colorado Springs", "latitude": "38.85031", "longitude": "-104.77320", "altitude": "6184"},
  {"id": "nkowalcz", "name": "Crafty Canary Brewery", "municipality": "Walsenburg", "latitude": "37.624444", "longitude": "-104.781111", "altitude": "6168"},
  {"id": "mlopez18", "name": "Goat Patch Brewing Company", "municipality": "Colorado Springs", "latitude": "38.872222", "longitude": "-104.820833", "altitude": "6135"},
  {"id": "chrismha", "name": "Florence Brewing Company", "municipality": "Florence", "latitude": "38.389126", "longitude": "-105.118019", "altitude": "6073"},
  {"id": "sammckay", "name": "Ball Brewing", "municipality": "Glenwood Springs","latitude": "39.469078", "longitude": "-107.268072", "altitude": "6017"},
  {"id": "alapwn", "name": "Paradox Trinidad Outpost", "municipality": "Trinidad", "latitude": "37.169676", "longitude": "-104.505418", "altitude": "6015"},
  {"id": "puttputt", "name": "Phantom Canyon Brewing Company", "municipality": "Colorado Springs", "latitude": "38.834167", "longitude": "-104.825000", "altitude": "6007"},
  {"id": "ntorraca", "name": "Brass Brewing Company", "municipality": "Colorado Springs", "latitude": "38.499837", "longitude": "-104.491640", "altitude": "6000"},
  {"id": "bmbright", "name": "Cerberus Brewing Company", "municipality": "Colorado Springs", "latitude": "38.833132", "longitude": "-104.837385", "altitude": "5999"},
  {"id": "abarth11", "name": "Bristol Brewing Company", "municipality": "Colorado Springs", "latitude": "38.811944", "longitude": "-104.827778", "altitude": "5980"},
  {"id": "blosche", "name": "Cannonball Creek Brewing Company", "municipality": "Golden", "latitude": "39.76860461", "longitude": "-105.23502839", "altitude": "5875"},
  {"id": "shayag", "name": "Welcome Home Brewery", "municipality": "Parker", "latitude": "39.49459", "longitude": "-104.76312", "altitude": "5859"},
  {"id": "daleym98", "name": "Downhill Brewing Company", "municipality": "Parker", "latitude": "39.52697533", "longitude": "-104.770058", "altitude": "5851"},
  {"id": "eide1992", "name": "Casey Brewing and Blending", "municipality": "Glenwood Springs", "latitude": "39.515782", "longitude": "-107.319653", "altitude": "5846"},
  {"id": "jcao7", "name": "3 Freaks Brewery", "municipality": "Highlands Ranch", "latitude": "39.56517", "longitude": "-104.90597", "altitude": "5817"},
  {"id": "jeydnb", "name": "Horsefly Brewing Company", "municipality": "Montrose", "latitude": "38.482749", "longitude": "-107.871408", "altitude": "5817"},
  {"id": "drehberg", "name": "Colorado Boy Pizzeria & Brewery", "municipality": "Montrose County", "latitude": "38.478960", "longitude": "-107.877111", "altitude": "5808"},
  {"id": "drecor", "name": "Two Rascals Brewing", "municipality": "Montrose", "latitude": "38.478611", "longitude": "-107.879444", "altitude": "5797"},
  {"id": "ojaswi","name": "Two22 Brew", "municipality": "Centennial", "latitude": "39.6351", "longitude": "-104.7591", "altitude": "5790"},
  {"id": "fargah1", "name": "TRVE Brewing Company Taproom", "municipality": "Denver", "latitude": "39.719928", "longitude": "-104.987946", "altitude": "5728"},
  {"id": "ahantke", "name": "Blue Spruce Brewing Company", "municipality": "Littleton", "latitude": "39.551330", "longitude": "-104.989990", "altitude": "5725"},
  {"id": "adeverau", "name": "Golden City Brewery", "municipality": "Golden", "latitude": "39.754444", "longitude": "-105.223884", "altitude": "5675"},
  {"id": "normanaa", "name": "Mountain Toad Brewing", "municipality": "Golden", "latitude": "39.758128", "longitude": "-105.2241772", "altitude": "5674"},
  {"id": "bcates", "name": "Chrysalis Barrel Aged Beer", "municipality": "Paonia", "latitude": "38.865556", "longitude": "-107.597778", "altitude": "5656"},
  {"id": "kroskykb", "name": "Rock Bottom Brewery (Highlands Ranch)", "municipality": "Highlands Ranch", "latitude": "39.55545932", "longitude": "-105.006461", "altitude": "5613"},
  {"id": "holmesaw", "name": "Grist Brewing Company", "municipality": "Highlands Ranch", "latitude": "39.548979", "longitude": "-105.033899", "altitude": "5565"},
  {"id": "daknis", "name": "Launch Pad Brewery", "municipality": "Aurora", "latitude": "39.700818", "longitude": "-104.789874", "altitude": "5545"},
  {"id": "mcr914", "name": "Old 121 Brewhouse", "municipality": "Lakewood", "latitude": "39.4153", "longitude": "-105.0456", "altitude": "5538"},
  {"id": "mfout", "name": "4 Noses Brewing Company", "municipality": "Broomfield", "latitude": "39.9065", "longitude": "-105.0986", "altitude": "5497"},
  {"id": "schmike", "name": "Dry Dock Brewing Company North", "municipality": "Aurora", "latitude": "39.756610", "longitude": "-104.773040", "altitude": "5492"},
  {"id": "nws", "name": "WestFax Brewing Company", "municipality": "Lakewood", "latitude": "39.741521", "longitude": "-105.071071", "altitude": "5409"},
  {"id": "pragjnab", "name": "Goldspot Brewing Company", "municipality": "Denver", "latitude": "39.786948", "longitude": "-105.034276", "altitude": "5404"},
  {"id": "wellsja", "name": "Ursula Brewery", "municipality": "Aurora", "latitude": "39.746979", "longitude": "-104.838031", "altitude": "5374"},
  {"id": "depazdj", "name": "Mad Russian Brewing Company", "municipality": "Olathe", "latitude": "38.6136258", "longitude": "-107.982575", "altitude": "5364"},
  {"id": "ryterski", "name": "12Degree Brewing", "municipality": "Louisville", "latitude": "39.978309", "longitude": "-105.131999", "altitude": "5352"},
  {"id": "Brockli", "name": "Worlds End Brewing Company", "municipality": "Canon City", "latitude": "38.2625", "longitude": "-105.1431", "altitude": "5351"},
  {"id": "evrose54", "name": "Jackass Hill Brewery", "municipality": "Littleton", "latitude": "39.613838", "longitude": "-105.016542", "altitude": "5348"},
  {"id": "gmyzer", "name": "Comet Brews", "municipality": "Littleton", "latitude": "39.61462", "longitude": "-105.01474", "altitude": "5341"},
  {"id": "etham", "name": "Gravity Brewing", "municipality": "Louisville", "latitude": "39.976092", "longitude": "-105.128682", "altitude":"5334"},
  {"id": "annierud", "name": "Denver Beer Co South Downing", "municipality": "Denver", "latitude": "39.6727139", "longitude": "-104.9735944", "altitude": "5321"},
  {"id": "grovee", "name": "Wonderland Brewing Company", "municipality": "Broomfield", "latitude": "39.913373", "longitude": "-105.055853", "altitude": "5310"},
  {"id": "esutko", "name": "The Post Brewing Company", "municipality": "Lafayette", "latitude": "39.676515", "longitude": "-104.987319", "altitude": "5289"},
  {"id": "joaop", "name": "Briar Common Brewery + Eatery", "municipality": "Denver", "latitude": "39.4459", "longitude": "105.0109", "altitude": "5285"},
  {"id": "brianliang88", "name": "Little Machine Beer", "municipality": "Denver", "latitude": "39.4446", "longitude": "-105.0131", "altitude": "5275"},
  {"id": "crish", "name": "Grandmaâ€™s House", "municipality": "Denver", "latitude": "39.685456", "longitude": "-104.9873531", "altitude": "5275"},
  {"id": "cytoniv", "name": "SomePlace Else Brewery", "municipality": "Arvada", "latitude": "39.79136", "longitude": "-105.06771", "altitude": "5272"},
  {"id": "rjnewby", "name": "Twisted Pine Brewing Company", "municipality": "Boulder", "latitude": "40.020611", "longitude": "-105.250941", "altitude": "5258"},
  {"id": "apappas", "name": "Black Sky Brewery", "municipality": "Denver", "latitude": "39.72396", "longitude": "-104.99846", "altitude": "5246"},
  {"id": "pmavrako", "name": "Woods Boss Brewing", "municipality": "Denver", "latitude": "39.750904", "longitude": "-104.984533", "altitude": "5230"},
  {"id": "sonudilp", "name": "Great Divide Brewing Company", "municipality": "Denver", "latitude": "39.7537", "longitude": "-104.9883", "altitude": "5224"},
  {"id": "farsi99", "name": "Spangalang Brewery", "municipality": "Denver", "latitude": "39.755261", "longitude": "-104.976780", "altitude": "5219"},
  {"id": "jolinder", "name": "Beyond The Mountain Brewing", "municipality": "Boulder", "latitude": "40.06523", "longitude": "-105.21512", "altitude": "5213"},
  {"id": "rachilya", "name": "10 Barrel Brewing Company", "municipality": "Denver", "latitude": "39.7595", "longitude": "-104.9857", "altitude": "5213"},
  {"id": "lxh", "name": "Frolic Brewing Company", "municipality": "Westminster", "latitude": "39.930783", "longitude": "-105.015045", "altitude": "5203"},
  {"id": "mayavit", "name": "10 Barrel Brewing Company", "municipality": "Denver", "latitude": "39.75941", "longitude": "-104.98547", "altitude": "5200"},
  {"id": "garretp", "name": "Colorado Sake Co", "municipality": "Denver", "latitude": "39.767892", "longitude": "-104.973680", "altitude": "5187"},
  {"id": "kaiyan", "name": "Avery Brewing Company", "municipality": "Boulder","latitude": "40.062584", "longitude": "-105.204765", "altitude": "5180"},
  {"id": "samsonmn", "name": "Mockery Brewing", "municipality": "Denver", "latitude": "39.771201", "longitude": "-104.979732", "altitude": "5171"},
  {"id": "mstrikr", "name": "Stodgy Brewing Company", "municipality": "Fort Collins", "latitude": "40.589444", "longitude": "-105.108611", "altitude": "5046"},
  {"id": "lmkerr", "name": "Big Thompson Brewery", "municipality": "Loveland", "latitude": "40.407780", "longitude": "-105.075430", "altitude": "5037"},
  {"id": "ramast1", "name": "Zwei Brewing Company", "municipality": "Fort Collins", "latitude": "40.522770", "longitude": "-105.078361", "altitude": "5035"},
  {"id": "elita", "name": "Maxline Brewing", "municipality": "Fort Collins", "latitude": "40.55033", "longitude": "-105.07929", "altitude": "5032"},
  {"id": "cmack816", "name": "Big Choice Brewing", "municipality": "Brighton", "latitude": "39.98640", "longitude": "-104.82274", "altitude": "5010"},
  {"id": "nfkamp", "name": "Reservoir Brewing Company", "municipality": "Pueblo West", "latitude": "38.321045", "longitude": "-104.704567", "altitude": "5010"},
  {"id": "anupkh", "name": "Crow Hop Brewing Company", "municipality": "Loveland", "latitude": "40.393964", "longitude": "-105.074056", "altitude": "4980"},
  {"id": "mespy50", "name": "New Belgium Brewing Company", "municipality": "Fort Collins", "latitude": "40.355790", "longitude": "-105.40914", "altitude": "4978"},
  {"id": "sgreyson", "name": "Primitive Beer", "municipality": "Longmont", "latitude": "40.134746", "longitude": "-105.103796", "altitude": "4974"},
  {"id": "dreamfox", "name": "Mirror Image Brewing Company", "municipality": "Frederick", "latitude": "40.11167005298334", "longitude": "-104.94540238568014", "altitude": "4970"},
  {"id": "tjhollan", "name": "Odell Brewing Company", "municipality": "Fort Collins", "latitude": "40.5895239", "longitude": "-105.06333271785812", "altitude": "4961"},
  {"id": "beefman", "name": "300 Suns Brewing", "municipality": "Longmont", "latitude": "40.16011", "longitude": "-105.10169", "altitude": "4946"},
  {"id": "ccluett", "name": "Horse and Dragon Brewing", "municipality": "Fort Collins", "latitude": "40.58974174758598", "longitude": "-105.04565518821444", "altitude": "4944"},
  {"id": "MDBoone", "name": "Rally King Brewing", "municipality": "Fort Collins", "latitude": "40.565", "longitude": "-105.055556", "altitude": "4941"},
  {"id": "jmismas", "name": "Funkwerks", "municipality": "Fort Collins", "latitude": "40.5832819298186", "longitude": "-105.0423999827897", "altitude": "4927"},
  {"id": "jcbradle", "name": "Timnath Beerwerks", "municipality": "Timnath", "latitude": "40.528961", "longitude": "-104.981686", "altitude": "4886"},
  {"id": "dylan14", "name": "Cerebral Brewing", "municipality": "Denver", "latitude": "39.73976", "longitude": "-104.94551", "altitude": "4851"},
  {"id": "sethgene", "name": "Crabtree Brewing Company", "municipality": "Greeley", "latitude": "40.39108", "longitude": "-104.72617", "altitude": "4826"},
  {"id": "codak", "name": "Peculier Ales", "municipality": "Windsor", "latitude": "40.480888", "longitude": "-104.90275", "altitude": "4795"},
  {"id": "ffelix1", "name": "High Hops Brewery", "municipality": "Windsor", "latitude":"40.48051324","longitude": "-104.93678284","altitude":"4776"},
  {"id": "devinwu2", "name": "Palisade Brewing Company", "municipality": "Palisade", "latitude": "39.1111", "longitude": "-108.3543", "altitude": "4732"},
  {"id": "amirr23", "name": "Shamrock Brewing Company", "municipality": "Peublo", "latitude": "38.269489", "longitude": "-104.607719", "altitude": "4665"},
  {"id": "trothert", "name": "Wiley Roots Brewing Company", "municipality": "Greeley", "latitude": "40.43161", "longitude": "-104.68847", "altitude": "4655"},
  {"id": "pritche", "name": "Brues Alehouse Brewing Company", "municipality": "Pueblo", "latitude": "38.26527778", "longitude": "-104.60972222", "altitude": "4649"},
  {"id": "kfinger", "name": "Suds Brothers Brewery", "municipality": "Fruita", "latitude": "39.158916", "longitude": "-108.732669", "altitude": "4524"},
  {"id": "scalfjm", "name": "Copper Club Brewing Company", "municipality": "Fruita", "latitude": "39.15977304", "longitude": "-108.73315035", "altitude": "4504"},
  {"id": "rpcme", "name": "Tumbleweed Brewing and Wine Company", "municipality": "Yuma", "latitude": "40.124508", "longitude": "-102.724227", "altitude": "4131"},
  {"id": "iliyan", "name": "Parts and Labor Brewing", "municipality": "Sterling", "latitude": "40.62516", "longitude": "-103.20976", "altitude": "3933"},
  {"id": "davematt", "name": "Steamworks Brewing Company", "municipality": "Durango", "latitude": "37.278887", "longitude": "-107.873908", "altitude": "0"}
  
  ,{"id": "asterix", "name": "WeldWerx Brewing Company", "municipality": "Greeley", "latitude": "40.428117", "longitude": "-107.691048", "altitude": "4642"}
  ,{"id": "darinh", "name": "Black Bottle Brewery", "municipality": "Fort Collins", "latitude": "40.566397", "longitude": "-105.078657", "altitude": "5003"}
  ,{"id": "sabdulm", "name": "Snowbank Brewing", "municipality": "Fort Collins", "latitude": "40.589930", "longitude": "-105.058720", "altitude": "4944"}
  ,{"id": "zachf", "name": "Westbound & Down Brewing Company", "municipality": "Idaho Springs", "latitude": "39.741749", "longitude": "-105.515480", "altitude": "7526"}
  ,{"id": "dbutcher", "name": "San Juan Brews", "municipality": "Montrose", "latitude": "38.480278", "longitude": "-107.875", "altitude": "5807"}
  ,{"id": "sammckay", "name": "3 Freaks Brewery", "municipality": "Highlands Ranch", "latitude": "39.564895", "longitude": "-104.906045", "altitude": "5773"}
  ,{"id": "tymber02", "name": "14er Brewing & Beer Garden", "municipality": "Denver", "latitude": "39.763748", "longitude": "-104.979121", "altitude": "5208"}
  ,{"id": "tanerjm", "name": "Oskar Blues Tasty Weasel Taproom (Main Brewery)", "municipality": "Longmont", "latitude": "40.139151", "longitude": "105.121821", "altitude": "4987"}
  ,{"id": "hayleyr", "name": "Zuni Street Brewing Company", "municipality": "Denver", "latitude": "39.758333", "longitude": "-105.014722", "altitude": "5263"}
]
